var points = [{"type":"FeatureCollection","features":[
{"type":"Feature","properties":{"name":"Math Coffee & Donut Shop","building":"Mathematics and Computer","coffeep":"0.75"},"geometry":{"type":"Point","coordinates":[-80.54359926,43.4719005]}},
{"type":"Feature","properties":{"name":"ES Coffee Shop","building":"EV 1","coffeep":"1"},"geometry":{"type":"Point","coordinates":[-80.54276898,43.46829626]}},
{"type":"Feature","properties":{"name":"William's Fresh Cafe","building":"EV3","coffeep":"3.39"},"geometry":{"type":"Point","coordinates":[-80.54345026,43.4681875]}},
{"type":"Feature","properties":{"name":"Common Ground","building":"Conrad Grebel University College","coffeep":"1"},"geometry":{"type":"Point","coordinates":[-80.54500326,43.4664105]}},
{"type":"Feature","properties":{"name":"The Funcken Cafe","building":"St. Jerome's","coffeep":"2.4"},"geometry":{"type":"Point","coordinates":[-80.54565726,43.4690695]}},
{"type":"Feature","properties":{"name":"Arts Student Union","building":"AL","coffeep":"0.5"},"geometry":{"type":"Point","coordinates":[-80.54193226,43.4688435]}},
{"type":"Feature","properties":{"name":"Watson's Eatery","building":"St. Paul's University","coffeep":"1.25"},"geometry":{"type":"Point","coordinates":[-80.54630526,43.4677965]}},
{"type":"Feature","properties":{"name":"Starbucks","building":"STC","coffeep":"3.95"},"geometry":{"type":"Point","coordinates":[-80.54349326,43.4708355]}},
{"type":"Feature","properties":{"name":"Watson's Mug","building":"St. Paul's University","coffeep":"1.95"},"geometry":{"type":"Point","coordinates":[-80.54635168,43.4679187]}},
{"type":"Feature","properties":{"name":"Science C & D","building":"STC","coffeep":"0.75"},"geometry":{"type":"Point","coordinates":[-80.54307426,43.4709455]}},
{"type":"Feature","properties":{"name":"PAS Lounge","building":"PAS","coffeep":"1.89"},"geometry":{"type":"Point","coordinates":[-80.54258226,43.4671465]}},
{"type":"Feature","properties":{"name":"St. Jerome's Cafeteria","building":"St. Jerome's University","coffeep":"1.5"},"geometry":{"type":"Point","coordinates":[-80.54550526,43.4692215]}},
{"type":"Feature","properties":{"name":"Tim Horton's","building":"South Campus Hall","coffeep":"1.43"},"geometry":{"type":"Point","coordinates":[-80.54018564,43.46913035]}},
{"type":"Feature","properties":{"name":"Graduate House","building":"Graduate House","coffeep":"1"},"geometry":{"type":"Point","coordinates":[-80.54083426,43.4697795]}},
{"type":"Feature","properties":{"name":"Waterloo Engineering Society C&D","building":"Carl A. Pollock Hall","coffeep":"0.9"},"geometry":{"type":"Point","coordinates":[-80.53924027,43.4707095]}},
{"type":"Feature","properties":{"name":"CEIT cafe","building":"Centre for Environmental and Information Technology","coffeep":"1.89"},"geometry":{"type":"Point","coordinates":[-80.54206126,43.4715775]}},
{"type":"Feature","properties":{"name":"mudie's","building":"Village 1","coffeep":"1.89"},"geometry":{"type":"Point","coordinates":[-80.54994626,43.4716475]}},
{"type":"Feature","properties":{"name":"Tim Hortons","building":"SLC","coffeep":"1.43"},"geometry":{"type":"Point","coordinates":[-80.54519826,43.4713395]}},
{"type":"Feature","properties":{"name":"Second Cup","building":"Second Cup","coffeep":"1.8"},"geometry":{"type":"Point","coordinates":[-80.53583727,43.4723605]}},
{"type":"Feature","properties":{"name":"Williams Fresh Cafe","building":"Williams Fresh Cafe","coffeep":"1.6"},"geometry":{"type":"Point","coordinates":[-80.53865327,43.4722665]}},
{"type":"Feature","properties":{"name":"Pastry Plus","building":"Needles Hall","coffeep":"1.89"},"geometry":{"type":"Point","coordinates":[-80.54344023,43.46960175]}},
{"type":"Feature","properties":{"name":"Browsers Cafe","building":"Dana Porter Library","coffeep":"1.89"},"geometry":{"type":"Point","coordinates":[-80.54227826,43.4668595]}},
{"type":"Feature","properties":{"name":"Modern Languages Cafeteria","building":"Modern languages","coffeep":"1.43"},"geometry":{"type":"Point","coordinates":[-80.54266926,43.4687945]}},
{"type":"Feature","properties":{"name":"Pastry Plud","building":"Needles Hall","coffeep":"1.89"},"geometry":{"type":"Point","coordinates":[-80.54227826,43.4668595]}},
{"type":"Feature","properties":{"name":"Common Ground","building":"NA","coffeep":"1"},"geometry":{"type":"Point","coordinates":[-80.54483926,43.4663635]}},
{"type":"Feature","properties":{"name":"common ground","building":"NA","coffeep":"1"},"geometry":{"type":"Point","coordinates":[-80.54480526,43.4668015]}},
{"type":"Feature","properties":{"name":"Watson's eatery","building":"NA","coffeep":"1.25"},"geometry":{"type":"Point","coordinates":[-80.54606426,43.4675985]}},
{"type":"Feature","properties":{"name":"Browsers cafe","building":"DP library","coffeep":"1.89"},"geometry":{"type":"Point","coordinates":[-80.54208226,43.4697345]}},
{"type":"Feature","properties":{"name":"Tim Hortons","building":"Modern Languages","coffeep":"1.43"},"geometry":{"type":"Point","coordinates":[-80.54271226,43.4689095]}},
{"type":"Feature","properties":{"name":"DC Tim Hortons Express","building":"NA","coffeep":"0"},"geometry":{"type":"Point","coordinates":[-80.54229668,43.47261009]}},
{"type":"Feature","properties":{"name":"DC Tim Hortons","building":"NA","coffeep":"0"},"geometry":{"type":"Point","coordinates":[-80.54267523,43.47294087]}},
{"type":"Feature","properties":{"name":"Brubakers SLC","building":"NA","coffeep":"0"},"geometry":{"type":"Point","coordinates":[-80.54540225,43.47202278]}},
{"type":"Feature","properties":{"name":"Starbucks BMH","building":"NA","coffeep":"0"},"geometry":{"type":"Point","coordinates":[-80.54556224,43.47350684]}},
{"type":"Feature","properties":{"name":"REVelation REV","building":"NA","coffeep":"0"},"geometry":{"type":"Point","coordinates":[-80.55425088,43.47030098]}},
{"type":"Feature","properties":{"name":"Liquid Assets HH","building":"NA","coffeep":"0"},"geometry":{"type":"Point","coordinates":[-80.54142631,43.46837487]}}
]}]
